city,state,cpi_index,quarterly_change,annual_change,population_weight,longitude,latitude
Sydney,NSW,141.8,0.6,1.9,32,151.2093,-33.8688
Melbourne,VIC,141.2,0.4,2,26,144.9631,-37.8136
Brisbane,QLD,144.1,0.8,2.5,20,153.0251,-27.4698
Adelaide,SA,142.4,0.8,1.8,7,138.6007,-34.9285
Perth,WA,141.3,1.9,2.7,10,115.8575,-31.9505
Hobart,TAS,140.7,0.5,1.7,2,147.3272,-42.8821
Darwin,NT,135.7,0.8,1.6,1,130.8419,-12.4634
Canberra,ACT,139,0.3,1.6,2,149.126,-35.2809
National_Average,ALL,141.7,0.7,2.1,100,0,0
